     3.04           OBSERVATION DATA    G: GPS              RINEX VERSION / TYPE
                                                            PGM / RUN BY / DATE 
                                                            MARKER NAME         
                                                            MARKER NUMBER       
                                                            MARKER TYPE         
                                                            OBSERVER / AGENCY   
                                                            REC # / TYPE / VERS 
                                                            ANT # / TYPE        
  3740902.9717  1152328.6273  5018970.7383                  APPROX POSITION XYZ 
        0.0000        0.0000        0.0000                  ANTENNA: DELTA H/E/N
G    8 C1C L1C D1C S1C C2X L2X D2X S2X                      SYS / # / OBS TYPES 
  2024    03    07    00    53   01.0000000     GPS         TIME OF FIRST OBS   
  2024    03    07    01    03   51.0000000     GPS         TIME OF LAST OBS    
G L1C                                                       SYS / PHASE SHIFT   
G L2X  0.00000                                              SYS / PHASE SHIFT   
  0                                                         GLONASS SLOT / FRQ #
                                                            GLONASS COD/PHS/BIS 
                                                            END OF HEADER       
> 2024 03 07 00 53 01.0000000  0 11                     
G04  21548635.724   113238836.9801      -2746.270          45.000    21548628.027    88238028.865       -2139.969          42.000  
G06  21409814.351   112509324.532       -1979.763          46.000    21409809.345    87669588.4301      -1542.576          43.000  
G07  22295652.482   117164434.668        2399.981          46.000    22295644.107    91296934.457        1870.218          39.000  
G09  19996789.098   105083828.3851       -285.881          49.000    19996782.584    81883482.3811       -222.871          44.000  
G11  22050217.806   115874668.439         617.531          44.000    22050209.546    90291920.7611        480.827          42.000  
G16  23480467.907   123390679.928        1182.854          43.000                                                                  
G20  23352467.147   122718031.865        3012.469          42.000                                                                  
G26  23847793.975   125320989.151       -1332.697          44.000    23847784.583                       -1038.672          29.000  
G29  25383945.744   133393524.2401        899.009          40.000    25383938.032   103942959.589         701.151          36.000  
G30  24737152.654   129994602.9481       3394.050          42.000    24737150.544                        2644.881          29.000  
G03  24094589.605   126617916.499       -3902.989          37.000                                                                  
> 2024 03 07 00 53 02.0000000  0 11                     
G04  21549158.396   113241583.298       -2746.503          45.000    21549150.660    88240168.855       -2140.273          42.000  
G06  21410191.119   112511304.457       -1980.477          46.000    21410185.977    87671131.231       -1543.214          43.000  
G07  22295195.867   117162034.796        2399.641          46.000    22295187.455    91295064.433        1869.740          39.000  
G09  19996843.543   105084114.545        -286.511          49.000    19996837.076    81883705.368        -223.326          44.000  
G11  22050100.349   115874051.245         616.794          44.000    22050092.107    90291439.818         480.601          42.000  
G16  23480242.827   123389497.441        1182.146          43.000                                                                  
G20  23351893.983   122715019.602        3012.132          42.000                                                                  
G26  23848047.501   125322322.134       -1333.307          44.000    23848038.728    97653689.105       -1038.867          29.000  
G29  25383774.652   133392625.644         898.397          40.000    25383767.119   103942259.446         699.608          36.000  
G30  24736506.793   129991208.787        3393.824          41.000    24736504.421   101291711.653        2644.682          29.000  
G03  24095332.429   126621819.629       -3903.307          37.000                                                                  
> 2024 03 07 00 53 03.0000000  0 11                     
G04  21549681.108   113244330.083       -2746.914          45.000    21549673.415    88242309.210       -2140.497          41.000  
G06  21410567.950   112513285.183       -1981.069          46.000    21410562.903    87672674.643       -1543.532          43.000  
G07  22294739.238   117159635.472        2398.980          46.000    22294730.948    91293194.827        1869.254          39.000  
G09  19996898.181   105084401.360        -286.980          49.000    19996891.660    81883928.861        -223.709          44.000  
G11  22049983.170   115873434.909         615.822          44.000    22049974.884    90290959.556         479.848          42.000  
G16  23480017.968   123388315.761        1181.470          42.000                                                                  
G20  23351320.761   122712007.703        3011.508          42.000                                                                  
G26  23848301.334   125323655.927       -1333.954          44.000    23848292.730    97654728.462       -1039.642          29.000  
G29  25383603.755   133391727.837         897.549          40.000    25383596.221   103941559.829         699.903          36.000  
G30  24735860.885   129987814.858        3393.927          41.000    24735856.941   101289067.032        2644.960          29.000  
G03  24096075.161   126625723.102       -3903.498          37.000                                                                  
> 2024 03 07 00 53 04.0000000  0 11                     
G04  21550203.820   113247077.293       -2747.408          45.000    21550196.179    88244449.879       -2140.740          42.000  
G06  21410945.065   112515266.640       -1981.740          45.000    21410939.951    87674218.653       -1544.314          43.000  
G07  22294282.672   117157236.605        2398.627          46.000    22294274.526    91291325.572        1869.406          39.000  
G09  19996952.947   105084688.783        -287.593          49.000    19996946.323    81884152.827        -224.241          44.000  
G11  22049865.985   115872819.353         615.274          44.000    22049857.796    90290479.907         479.328          42.000  
G16  23479793.243   123387134.839        1180.626          42.000                                                                  
G20  23350747.756   122708996.106        3011.521          42.000                                                                  
G26  23848555.281   125324990.491       -1334.790          44.000    23848547.524    97655768.393       -1040.546          29.000  
G29  25383433.097   133390830.771         896.637          40.000    25383425.655   103940860.803         698.930          36.000  
G30  24735215.079   129984421.141        3393.625          41.000    24735209.505   101286422.591        2644.517          29.000  
G03  24096818.050   126629626.827       -3903.757          37.000                                                                  
> 2024 03 07 00 53 05.0000000  0 11                     
G04  21550726.655   113249824.933       -2748.171          45.000    21550719.043    88246590.897       -2141.354          42.000  
G06  21411322.321   112517248.879       -1982.834          45.000    21411317.185    87675763.259       -1545.278          43.000  
G07  22293826.323   117154838.258        2397.867          46.000    22293818.104    91289456.730        1868.629          39.000  
G09  19997007.831   105084976.841        -288.722          49.000    19997001.165    81884377.272        -224.834          44.000  
G11  22049749.076   115872204.633         614.080          44.000    22049740.693    90290000.899         478.569          42.000  
G16  23479568.654   123385954.690        1179.595          42.000                                                                  
G20  23350174.630   122705984.850        3011.073          42.000                                                                  
G26  23848809.317   125326325.858       -1335.834          44.000    23848802.257    97656808.881       -1040.741          29.000  
G29  25383262.534   133389934.442         895.728          40.000    25383255.155   103940162.380         697.780          36.000  
G30  24734569.341   129981027.630        3393.154          41.000    24734564.392   101283778.338        2643.848          29.000  
G03  24097561.070   126633530.863       -3904.540          37.000                                                                  
> 2024 03 07 00 53 06.0000000  0 11                     
G04  21551249.585   113252573.028       -2748.398          45.000    21551241.978    88248732.283       -2141.610          42.000  
G06  21411699.619   112519231.905       -1983.433          45.000    21411694.588    87677308.458       -1545.562          43.000  
G07  22293370.028   117152440.423        2397.442          46.000    22293361.752    91287588.292        1868.073          39.000  
G09  19997062.759   105085265.536        -289.016          49.000    19997056.102    81884602.246        -225.391          44.000  
G11  22049632.152   115871590.755         613.493          45.000    22049623.945    90289522.555         478.183          42.000  
G16  23479344.153   123384775.346        1178.996          42.000                                                                  
G20  23349601.636   122702973.959        3010.646          42.000                                                                  
G26  23849063.559   125327662.035       -1336.591          44.000    23849056.711    97657850.071       -1041.370          29.000  
G29  25383092.172   133389038.877         895.286          40.000    25383084.830   103939464.552         697.330          36.000  
G30  24733923.674   129977634.378        3393.303          41.000    24733918.148   101281134.235        2644.131          29.000  
G03  24098304.113   126637435.209       -3904.646          37.000                                                                  
> 2024 03 07 00 53 07.0000000  0 11                     
G04  21551772.701   113255321.546       -2748.711          45.000    21551765.030    88250873.963       -2141.642          42.000  
G06  21412077.117   112521215.680       -1984.164          45.000    21412072.032    87678854.253       -1546.099          43.000  
G07  22292913.910   117150043.059        2397.153          46.000    22292905.524    91285720.219        1867.950          39.000  
G09  19997117.761   105085554.838        -289.588          49.000    19997111.205    81884827.665        -225.580          44.000  
G11  22049515.539   115870977.683         612.640          45.000    22049507.338    90289044.837         477.457          42.000  
G16  23479119.829   123383596.779        1178.093          43.000                                                                  
G20  23349028.673   122699963.373        3010.629          42.000                                                                  
G26  23849317.965   125328999.001       -1337.482          44.000    23849311.170    97658891.875       -1042.017          29.000  
G29  25382921.893   133388144.037         894.715          40.000    25382914.532   103938767.272         696.916          36.000  
G30  24733278.029   129974241.330        3393.125          41.000    24733272.388   101278490.291        2643.660          29.000  
G03  24099047.100   126641339.834       -3904.859          37.000                                                                  
> 2024 03 07 00 53 08.0000000  0 11                     
G04  21552295.780   113258070.678       -2749.136          45.000    21552288.128    88253016.158       -2142.162          42.000  
G06  21412454.746   112523200.408       -1984.927          45.000    21412449.708    87680400.794       -1546.641          43.000  
G07  22292457.920   117147646.388        2396.573          46.000    22292449.414    91283852.676        1867.430          39.000  
G09  19997172.979   105085844.953        -290.150          49.000    19997166.462    81885053.730        -226.131          44.000  
G11  22049398.993   115870365.618         611.877          45.000    22049390.802    90288567.906         476.572          42.000  
G16  23478895.624   123382419.154        1177.484          43.000                                                                  
G20  23348455.939   122696953.313        3010.290          42.000                                                                  
G26  23849572.507   125330336.929       -1338.135          44.000    23849566.399    97659934.445       -1042.700          29.000  
G29  25382751.813   133387250.150         893.762          41.000    25382744.487   103938070.740         696.320          36.000  
G30  24732632.407   129970848.681        3392.665          41.000    24732626.760   101275846.645        2643.816          29.000  
G03  24099790.195   126645244.912       -3904.978          37.000                                                                  
> 2024 03 07 00 53 09.0000000  0 11                     
G04  21552819.092   113260820.203       -2749.968          45.000    21552811.344    88255158.633       -2142.503          42.000  
G06  21412832.578   112525185.850       -1985.988          45.000    21412827.473    87681947.892       -1547.452          43.000  
G07  22292001.956   117145250.165        2395.804          46.000    22291993.430    91281985.500        1866.732          39.000  
G09  19997228.260   105086135.650        -291.061          49.000    19997221.763    81885280.253        -226.890          44.000  
G11  22049282.601   115869754.323         610.743          45.000    22049274.486    90288091.563         476.059          42.000  
G16  23478671.634   123381242.273        1176.328          43.000                                                                  
G20  23347883.240   122693943.525        3009.781          42.000                                                                  
G26  23849827.241   125331675.584       -1339.050          44.000    23849822.445    97660977.552       -1043.146          29.000  
G29  25382581.950   133386356.944         892.763          41.000    25382574.550   103937374.748         695.483          36.000  
G30  24731986.791   129967456.182        3392.365          42.000    24731981.223   101273203.189        2642.763          29.000  
G03  24100533.388   126649150.261       -3905.784          37.000                                                                  
> 2024 03 07 00 53 10.0000000  0 11                     
G04  21553342.386   113263570.259       -2750.106          45.000    21553334.592    88257301.538       -2142.922          42.000  
G06  21413210.556   112527172.181       -1986.763          45.000    21413205.446    87683495.683       -1548.187          43.000  
G07  22291546.118   117142854.546        2395.360          46.000    22291537.483    91280118.780        1866.782          39.000  
G09  19997283.653   105086427.089        -291.646          49.000    19997277.181    81885507.346        -227.382          44.000  
G11  22049166.440   115869143.962         609.816          45.000    22049158.293    90287615.971         475.121          42.000  
G16  23478447.970   123380066.270        1175.579          43.000                                                                  
G20  23347310.595   122690934.200        3009.112          42.000                                                                  
G26  23850082.211   125333015.171       -1340.277          44.000    23850074.896    97662021.350       -1044.189          30.000  
G29  25382412.187   133385464.607         891.819          41.000    25382404.518   103936679.414         694.812          36.000  
G30  24731341.262   129964064.054        3392.054          42.000    24731335.926   101270559.973        2642.822          29.000  
G03  24101276.636   126653055.968       -3905.781          37.000                                                                  
> 2024 03 07 00 53 11.0000000  0 11                     
G04  21553865.749   113266320.868       -2750.790          45.000    21553858.042    88259444.875       -2143.525          42.000  
G06  21413588.753   112529159.371       -1987.720          46.000    21413583.652    87685044.155       -1549.143          43.000  
G07  22291090.311   117140459.523        2394.926          46.000    22291081.708    91278252.539        1865.870          39.000  
G09  19997339.323   105086719.247        -292.487          49.000    19997332.719    81885735.002        -227.904          44.000  
G11  22049050.541   115868534.523         608.896          45.000    22049042.341    90287141.076         474.461          42.000  
G16  23478224.336   123378891.152        1174.837          42.000                                                                  
G20  23346737.987   122687925.297        3008.540          42.000                                                                  
G26  23850337.304   125334355.625       -1340.961          44.000    23850333.639    97663065.873       -1044.727          30.000  
G29  25382242.615   133384573.114         891.006          40.000    25382234.871   103935984.759         694.077          36.000  
G30  24730695.780   129960672.217        3391.591          41.000    24730690.336   101267916.953        2642.824          29.000  
G03  24102019.941   126656962.110       -3906.109          37.000                                                                  
> 2024 03 07 00 53 12.0000000  0 11                     
G04  21554389.316   113269071.998       -2751.157          45.000    21554381.566    88261588.612       -2143.685          42.000  
G06  21413967.039   112531147.410       -1988.427          46.000    21413961.967    87686593.266       -1549.454          43.000  
G07  22290634.738   117138065.095        2394.365          46.000    22290626.028    91276386.730        1866.000          40.000  
G09  19997395.112   105087012.136        -292.991          49.000    19997388.476    81885963.224        -228.293          44.000  
G11  22048934.763   115867925.996         608.232          45.000    22048926.513    90286666.896         473.975          42.000  
G16  23478000.888   123377716.897        1174.208          42.000                                                                  
G20  23346165.434   122684916.819        3008.563          42.000                                                                  
G26  23850592.690   125335696.977       -1341.565          44.000    23850589.730    97664111.068       -1045.215          30.000  
G29  25382073.113   133383682.473         890.210          40.000    25382065.381   103935290.759         693.162          36.000  
G30  24730050.364   129957280.698        3391.406          41.000    24730045.054   101265274.194        2643.026          29.000  
G03  24102763.350   126660868.620       -3906.393          37.000                                                                  
> 2024 03 07 00 53 13.0000000  0 11                     
G04  21554912.980   113271823.644       -2751.797          45.000    21554905.080    88263732.740       -2144.116          42.000  
G06  21414345.578   112533136.310       -1989.304          46.000    21414340.537    87688143.060       -1550.150          43.000  
G07  22290179.223   117135671.240        2393.686          46.000    22290170.579    91274521.401        1865.178          40.000  
G09  19997451.082   105087305.723        -293.833          49.000    19997444.411    81886191.991        -228.902          44.000  
G11  22048819.049   115867318.379         607.117          44.000    22048810.913    90286193.419         473.098          42.000  
G16  23477777.703   123376543.503        1173.270          42.000                                                                  
G20  23345592.892   122681908.754        3008.191          42.000                                                                  
G26  23850848.143   125337039.192       -1342.468          44.000    23850843.304    97665156.986       -1046.228          30.000  
G29  25381903.788   133382792.626         889.462          40.000    25381895.956   103934597.337         693.730          36.000  
G30  24729405.127   129953889.473        3391.192          41.000    24729399.713   101262631.698        2642.110          29.000  
G03  24103506.877   126664775.488       -3906.656          37.000    24103500.550    98699804.9442      -3044.850          38.000  
> 2024 03 07 00 53 14.0000000  0 11                     
G04  21555436.737   113274575.753       -2752.302          45.000    21555428.848    88265877.255       -2144.712          42.000  
G06  21414724.178   112535125.991       -1990.018          46.000    21414719.169    87689693.464       -1550.792          43.000  
G07  22289723.766   117133277.907        2393.166          46.000    22289715.143    91272656.487        1864.516          39.000  
G09  19997507.072   105087599.963        -294.543          49.000    19997500.406    81886421.263        -229.385          44.000  
G11  22048703.609   115866711.590         606.347          44.000    22048695.497    90285720.594         472.566          42.000  
G16  23477554.605   123375370.926        1172.252          42.000                                                                  
G20  23345020.545   122678901.069        3007.435          42.000                                                                  
G26  23851103.739   125338382.245       -1343.445          44.000    23851099.275    97666203.421       -1045.581          29.000  
G29  25381734.568   133381903.581         888.853          40.000    25381726.861   103933904.597         692.199          36.000  
G30  24728759.827   129950498.507        3390.993          42.000    24728754.518   101259989.391        2642.350          29.000  
G03  24104250.374   126668682.706       -3907.313          37.000    24104245.191    98702854.514       -3044.594          37.000  
> 2024 03 07 00 53 15.0000000  0 11                     
G04  21555960.516   113277328.200       -2752.595          45.000    21555952.702    88268022.028       -2145.053          42.000  
G06  21415102.895   112537116.358       -1990.708          46.000    21415097.868    87691244.385       -1550.903          43.000  
G07  22289268.356   117130884.994        2392.625          46.000    22289259.828    91270791.859        1864.519          39.000  
G09  19997563.103   105087894.743        -295.060          49.000    19997556.456    81886650.968        -229.810          44.000  
G11  22048588.262   115866105.536         605.629          44.000    22048580.130    90285248.358         471.931          42.000  
G16  23477331.614   123374199.020        1171.543          42.000                                                                  
G20  23344448.221   122675893.619        3007.443          42.000                                                                  
G26  23851359.444   125339725.974       -1344.073          44.000    23851355.427    97667250.556       -1047.156          29.000  
G29  25381565.439   133381015.197         888.162          40.000    25381557.811   103933212.356         691.695          36.000  
G30  24728114.604   129947107.658        3391.076          42.000    24728109.259   101257347.127        2642.670          29.000  
G03  24104993.887   126672590.109       -3907.385          37.000    24104988.714    98705899.220       -3044.512          37.000  
> 2024 03 07 00 53 16.0000000  0 11                     
G04  21556484.339   113280081.103       -2753.259          45.000    21556476.516    88270167.149       -2145.542          42.000  
G06  21415481.829   112539107.511       -1991.840          46.000    21415476.692    87692795.948       -1552.207          43.000  
G07  22288813.123   117128492.579        2391.999          46.000    22288804.582    91268927.648        1863.791          39.000  
G09  19997619.279   105088190.168        -295.894          49.000    19997612.631    81886881.171        -230.670          44.000  
G11  22048473.104   115865500.336         604.340          44.000    22048464.961    90284776.767         471.257          42.000  
G16  23477108.696   123373027.929        1170.382          42.000                                                                  
G20  23343876.014   122672886.520        3006.723          42.000                                                                  
G26  23851615.254   125341070.520       -1345.148          44.000    23851608.942    97668298.210       -1047.791          29.000  
G29  25381396.469   133380127.577         886.734          40.000    25381388.962   103932520.670         691.256          36.000  
G30  24727469.466   129943717.053        3390.589          42.000    24727464.193   101254705.167        2641.571          29.000  
G03  24105737.609   126676497.827       -3908.094          37.000    24105731.988    98708944.206       -3045.362          37.000  
> 2024 03 07 00 53 17.0000000  0 11                     
G04  21557008.368   113282834.690       -2753.730          45.000    21557000.459    88272312.805       -2146.125          42.000  
G06  21415861.002   112541099.676       -1992.535          46.000    21415855.753    87694348.266       -1552.391          43.000  
G07  22288358.015   117126100.923        2391.261          46.000    22288349.426    91267064.000        1863.598          39.000  
G09  19997675.722   105088486.463        -296.683          49.000    19997669.026    81887112.046        -231.198          44.000  
G11  22048358.054   115864896.183         603.815          44.000    22048349.957    90284306.008         470.328          42.000  
G16  23476886.104   123371857.846        1169.523          42.000                                                                  
G20  23343303.770   122669880.000        3006.329          42.000                                                                  
G26  23851871.299   125342416.101       -1346.075          44.000    23851865.413    97669346.777       -1049.176          29.000  
G29  25381227.809   133379240.918         886.436          40.000    25381220.318   103931829.820         690.339          36.000  
G30  24726824.355   129940326.919        3390.196          42.000    24726819.199   101252063.526        2641.268          29.000  
G03  24106481.305   126680406.057       -3908.300          37.000    24106475.518    98711989.600       -3045.504          37.000  
> 2024 03 07 00 53 18.0000000  0 11                     
G04  21557532.428   113285588.718       -2754.291          45.000    21557524.565    88274458.797       -2146.425          42.000  
G06  21416240.161   112543092.606       -1993.311          46.000    21416234.982    87695901.218       -1553.531          43.000  
G07  22287903.002   117123709.749        2390.793          46.000    22287894.483    91265200.764        1862.820          40.000  
G09  19997732.253   105088783.393        -297.353          49.000    19997725.531    81887343.428        -231.853          44.000  
G11  22048243.231   115864292.869         602.918          44.000    22048235.148    90283835.910         469.365          42.000  
G16  23476663.676   123370688.559        1168.581          42.000                                                                  
G20  23342731.705   122666873.823        3006.035          42.000                                                                  
G26  23852127.489   125343762.474       -1346.661          44.000    23852120.960    97670395.885       -1049.451          29.000  
G29  25381059.259   133378355.046         885.452          40.000    25381051.650   103931139.546         689.667          36.000  
G30  24726179.377   129936937.035        3389.636          42.000    24726174.172   101249422.006        2641.276          29.000  
G03  24107225.049   126684314.609       -3908.792          37.000    24107219.406    98715035.210       -3045.616          37.000  
> 2024 03 07 00 53 19.0000000  0 11                     
G04  21558056.556   113288343.092       -2754.497          45.000    21558048.813    88276605.050       -2146.321          42.000  
G06  21416619.634   112545086.234       -1994.091          46.000    21416614.344    87697454.678       -1553.657          43.000  
G07  22287448.073   117121318.993        2390.598          46.000    22287439.472    91263337.843        1862.644          39.000  
G09  19997788.941   105089080.857        -297.777          49.000    19997782.083    81887575.221        -232.179          44.000  
G11  22048128.585   115863690.284         602.314          44.000    22048120.457    90283366.361         469.021          42.000  
G16  23476441.208   123369519.947        1168.156          42.000                                                                  
G20  23342159.686   122663867.901        3005.649          42.000                                                                  
G26  23852383.859   125345109.557       -1347.540          44.000    23852377.126    97671445.582       -1049.915          29.000  
G29  25380890.887   133377469.823         885.042          40.000    25380883.293   103930449.744         689.378          36.000  
G30  24725534.336   129933547.258        3389.627          42.000    24725529.289   101246780.672        2640.461          29.000  
G03  24107968.757   126688223.369       -3909.090          37.000    24107963.269    98718080.997       -3045.869          37.000  
> 2024 03 07 00 53 20.0000000  0 11                     
G04  21558580.750   113291097.920       -2755.121          45.000    21558573.066    88278751.675       -2146.876          42.000  
G06  21416999.236   112547080.629       -1994.844          46.000    21416993.954    87699008.751       -1554.384          43.000  
G07  22286993.189   117118928.761        2389.877          46.000    22286984.640    91261475.330        1862.208          40.000  
G09  19997845.684   105089378.965        -298.396          49.000    19997838.807    81887807.517        -232.663          44.000  
G11  22048013.950   115863088.534         601.497          44.000    22048005.968    90282897.454         468.642          42.000  
G16  23476218.981   123368352.132        1167.344          42.000                                                                  
G20  23341587.755   122660862.309        3005.687          42.000                                                                  
G26  23852640.387   125346457.451       -1348.383          44.000    23852633.439    97672495.859       -1050.348          29.000  
G29  25380722.534   133376585.352         884.239          40.000    25380715.087   103929760.546         688.882          36.000  
G30  24724889.346   129930157.706        3389.514          42.000    24724884.343   101244139.418        2641.232          29.000  
G03  24108712.480   126692132.411       -3909.004          37.000    24108707.245    98721127.003       -3045.938          37.000  
> 2024 03 07 00 53 21.0000000  0 11                     
G04  21559105.080   113293853.202       -2755.515          45.000    21559097.355    88280898.648       -2147.137          42.000  
G06  21417378.838   112549075.822       -1995.726          46.000    21417373.686    87700563.451       -1555.059          43.000  
G07  22286538.404   117116539.045        2389.474          46.000    22286529.927    91259613.212        1861.909          40.000  
G09  19997902.520   105089677.739        -299.253          49.000    19997895.610    81888040.314        -233.081          44.000  
G11  22047899.498   115862487.654         600.322          44.000    22047891.671    90282429.229         467.959          42.000  
G16  23475996.870   123367185.134        1166.640          42.000                                                                  
G20  23341015.892   122657857.106        3004.929          43.000                                                                  
G26  23852897.015   125347806.146       -1349.115          44.000    23852890.159    97673546.793       -1051.056          28.000  
G29  25380554.412   133375701.689         883.171          40.000    25380546.974   103929071.972         688.264          36.000  
G30  24724244.347   129926768.431        3388.768          42.000    24724239.383   101241498.430        2640.633          29.000  
G03  24109456.417   126696041.806       -3909.656          37.000    24109451.279    98724173.267       -3046.353          37.000  
> 2024 03 07 00 53 22.0000000  0 11                     
G04  21559629.444   113296609.070       -2756.254          45.000    21559621.836    88283046.074       -2147.815          42.000  
G06  21417758.688   112551071.914       -1996.688          46.000    21417753.563    87702118.855       -1556.034          43.000  
G07  22286083.793   117114149.981        2388.579          46.000    22286075.325    91257751.611        1861.229          39.000  
G09  19997959.541   105089977.265        -300.083          49.000    19997952.563    81888273.718        -233.851          44.000  
G11  22047785.452   115861887.724         599.156          44.000    22047777.528    90281961.755         467.049          42.000  
G16  23475774.958   123366019.060        1165.211          42.000                                                                  
G20  23340444.183   122654852.368        3004.206          42.000                                                                  
G26  23853153.798   125349155.783       -1350.189          44.000    23853146.743    97674598.536       -1052.460          29.000  
G29  25380386.261   133374818.888         882.117          40.000    25380379.056   103928384.093         687.232          36.000  
G30  24723599.500   129923379.505        3388.139          42.000    24723594.597   101238857.711        2640.323          28.000  
G03  24110200.421   126699951.604       -3910.097          37.000    24110195.419    98727219.880       -3046.866          37.000  
> 2024 03 07 00 53 23.0000000  0 11                     
G04  21560153.874   113299365.384       -2756.352          45.000    21560146.339    88285193.862       -2148.036          42.000  
G06  21418138.705   112553068.798       -1997.248          46.000    21418133.637    87703674.863       -1556.343          43.000  
G07  22285629.263   117111761.444        2388.267          46.000    22285620.826    91255890.416        1860.710          39.000  
G09  19998016.593   105090277.444        -300.399          49.000    19998009.674    81888507.629        -234.227          44.000  
G11  22047671.406   115861288.636         598.708          44.000    22047663.564    90281494.932         466.629          42.000  
G16  23475553.164   123364853.777        1164.935          42.000                                                                  
G20  23339872.556   122651847.983        3003.971          42.000                                                                  
G26  23853410.843   125350506.226       -1350.720          44.000    23853403.647    97675650.802       -1052.557          29.000  
G29  25380218.430   133373936.861         881.893          40.000    25380211.275   103927696.808         687.085          37.000  
G30  24722954.662   129919990.805        3388.639          42.000    24722949.856   101236217.214        2639.769          28.000  
G03  24110944.447   126703861.716       -3910.197          37.000    24110939.647    98730266.717       -3046.968          37.000  
> 2024 03 07 00 53 24.0000000  0 11                     
G04  21560678.414   113302122.111       -2757.205          45.000    21560670.970    88287341.942       -2148.287          42.000  
G06  21418518.832   112555066.420       -1998.313          46.000    21418513.654    87705231.445       -1557.054          43.000  
G07  22285174.789   117109373.360        2387.558          46.000    22285166.344    91254029.561        1860.320          40.000  
G09  19998073.801   105090578.212        -301.189          49.000    19998067.051    81888741.990        -234.705          44.000  
G11  22047557.609   115860690.326         597.783          44.000    22047549.759    90281028.724         465.777          42.000  
G16  23475331.533   123363689.238        1163.914          42.000                                                                  
G20  23339300.851   122648843.887        3003.645          42.000                                                                  
G26  23853668.004   125351857.452       -1352.099          44.000    23853660.784    97676703.700       -1053.583          29.000  
G29  25380050.708   133373055.551         880.723          40.000    25380043.648   103927010.078         685.930          37.000  
G30  24722309.763   129916602.301        3388.213          42.000    24722305.074   101233576.800        2640.197          29.000  
G03  24111688.569   126707772.101       -3910.625          38.000    24111683.866    98733313.764       -3047.376          37.000  
> 2024 03 07 00 53 25.0000000  0 11                     
G04  21561203.080   113304879.265       -2757.328          45.000    21561195.622    88289490.380       -2148.645          42.000  
G06  21418899.128   112557064.818       -1998.981          46.000    21418893.987    87706788.636       -1557.593          43.000  
G07  22284720.518   117106985.792        2387.401          46.000    22284712.020    91252169.114        1860.234          40.000  
G09  19998131.138   105090879.630        -301.750          49.000    19998124.503    81888976.848        -234.990          44.000  
G11  22047443.944   115860092.856         597.126          44.000    22047436.096    90280563.155         465.321          42.000  
G16  23475110.133   123362525.484        1163.278          42.000                                                                  
G20  23338729.362   122645840.138        3003.676          42.000                                                                  
G26  23853925.305   125353209.454       -1352.417          44.000    23853918.103    97677757.203       -1053.937          29.000  
G29  25379883.080   133372174.996         880.122          40.000    25379876.063   103926323.908         686.056          37.000  
G30  24721664.942   129913214.043        3387.981          42.000    24721660.180   101230936.574        2640.099          29.000  
G03  24112432.657   126711682.786       -3910.973          37.000    24112428.136    98736361.041       -3047.436          37.000  
> 2024 03 07 00 53 26.0000000  0 11                     
G04  21561727.938   113307636.821       -2757.654          45.000    21561720.312    88291639.134       -2148.849          42.000  
G06  21419279.553   112559063.930       -1999.527          46.000    21419274.525    87708346.371       -1557.802          42.000  
G07  22284266.281   117104598.686        2386.967          46.000    22284257.767    91250309.028        1860.136          40.000  
G09  19998188.615   105091181.616        -302.189          49.000    19998181.992    81889212.162        -235.379          44.000  
G11  22047330.341   115859496.160         596.341          44.000    22047322.524    90280098.205         464.860          42.000  
G16  23474888.953   123361362.489        1162.627          42.000                                                                  
G20  23338157.761   122642836.686        3003.319          42.000                                                                  
G26  23854182.769   125354562.199       -1353.156          44.000    23854175.680    97678811.260       -1055.066          30.000  
G29  25379715.662   133371295.137         879.658          39.000    25379708.682   103925638.306         685.351          37.000  
G30  24721020.266   129909825.946        3388.061          42.000    24721015.578   101228296.521        2639.839          29.000  
G03  24113176.959   126715593.701       -3910.904          38.000    24113172.474    98739408.488       -3046.916          37.000  
> 2024 03 07 00 53 27.0000000  0 11                     
G04  21562252.711   113310394.714       -2757.889          45.000    21562245.110    88293788.132       -2148.931          42.000  
G06  21419660.138   112561063.703       -1999.751          46.000    21419655.090    87709904.644       -1558.372          43.000  
G07  22283812.070   117102211.985        2386.556          46.000    22283803.602    91248449.267        1859.812          40.000  
G09  19998246.285   105091484.140        -302.624          49.000    19998239.596    81889447.903        -235.866          44.000  
G11  22047216.890   115858900.184         595.950          44.000    22047209.086    90279633.800         464.357          42.000  
G16  23474667.809   123360200.155        1162.084          42.000                                                                  
G20  23337586.296   122639833.486        3002.875          42.000                                                                  
G26  23854440.417   125355915.641       -1353.674          44.000    23854433.412    97679865.919       -1055.243          31.000  
G29  25379548.383   133370415.943         879.092          39.000    25379541.423   103924953.200         685.181          37.000  
G30  24720375.483   129906437.976        3388.139          42.000    24720370.798   101225656.561        2639.662          29.000  
G03  24113921.332   126719504.802       -3910.998          38.000    24113916.746    98742456.115       -3047.298          37.000  
> 2024 03 07 00 53 28.0000000  0 11                     
G04  21562777.519   113313153.157       -2758.726          45.000    21562770.014    88295937.578       -2149.855          42.000  
G06  21420040.843   112563064.364       -2000.826          46.000    21420035.724    87711463.613       -1559.524          42.000  
G07  22283358.026   117099825.893        2385.676          46.000    22283349.576    91246589.961        1859.300          39.000  
G09  19998303.933   105091787.397        -303.424          49.000    19998297.249    81889684.205        -236.461          44.000  
G11  22047103.767   115858305.172         594.520          44.000    22047095.892    90279170.159         463.155          42.000  
G16  23474446.826   123359038.732        1160.961          42.000                                                                  
G20  23337014.881   122636830.726        3002.315          42.000                                                                  
G26  23854698.159   125357270.003       -1354.907          44.000    23854691.249    97680921.292       -1055.939          32.000  
G29  25379381.127   133369537.608         877.958          39.000    25379374.429   103924268.822         683.754          37.000  
G30  24719730.862   129903050.340        3387.296          42.000    24719726.088   101223016.855        2639.240          28.000  
G03  24114665.687   126723416.351       -3911.962          38.000    24114661.137    98745504.064       -3047.961          37.000  
> 2024 03 07 00 53 29.0000000  0 11                     
G04  21563302.524   113315912.070       -2759.111          45.000    21563295.002    88298087.383       -2150.181          42.000  
G06  21420421.744   112565065.832       -2001.882          46.000    21420416.474    87713023.187       -1559.899          42.000  
G07  22282904.013   117097440.330        2385.335          46.000    22282895.561    91244731.104        1858.769          40.000  
G09  19998361.733   105092091.336        -304.193          49.000    19998355.062    81889921.040        -237.024          44.000  
G11  22046990.629   115857710.978         593.794          44.000    22046982.847    90278707.157         462.706          42.000  
G16  23474225.967   123357878.107        1160.223          42.000                                                                  
G20  23336443.583   122633828.312        3002.370          42.000                                                                  
G26  23854955.951   125358625.168       -1355.493          44.000    23854949.452    97681977.238       -1055.743          30.000  
G29  25379214.160   133368660.049         877.427          39.000    25379207.417   103923584.981         683.696          37.000  
G30  24719086.243   129899662.952        3387.269          42.000    24719081.577   101220377.282        2639.583          28.000  
G03  24115410.163   126727328.154       -3911.843          38.000    24115405.537    98748552.256       -3048.217          37.000  
> 2024 03 07 00 53 30.0000000  0 11                     
G04  21563827.582   113318671.418       -2759.640          45.000    21563820.113    88300237.500       -2150.177          42.000  
G06  21420802.826   112567068.066       -2002.599          46.000    21420797.473    87714583.360       -1560.258          42.000  
G07  22282450.152   117095055.279        2384.779          46.000    22282441.556    91242872.608        1858.510          40.000  
G09  19998419.614   105092395.886        -304.773          49.000    19998412.950    81890158.358        -237.551          44.000  
G11  22046877.584   115857117.634         592.852          44.000    22046869.813    90278244.796         462.323          42.000  
G16  23474005.227   123356718.278        1159.299          42.000                                                                  
G20  23335872.236   122630826.254        3002.217          42.000                                                                  
G26  23855214.040   125359981.148       -1356.299          44.000    23855207.576    97683033.830       -1057.373          30.000  
G29  25379047.353   133367783.274         876.398          39.000    25379040.557   103922901.780         682.706          37.000  
G30  24718441.730   129896275.793        3386.989          42.000    24718437.176   101217737.918        2639.546          28.000  
G03  24116154.593   126731240.298       -3912.351          38.000    24116150.005    98751600.661       -3048.241          37.000  
> 2024 03 07 00 53 31.0000000  0 11                     
G04  21564352.682   113321431.219       -2760.011          45.000    21564345.318    88302388.015       -2150.828          42.000  
G06  21421184.025   112569071.093       -2003.447          46.000    21421178.655    87716144.161       -1561.050          42.000  
G07  22281996.264   117092670.754        2384.241          46.000    22281987.827    91241014.558        1857.719          40.000  
G09  19998477.856   105092701.102        -305.702          49.000    19998470.958    81890396.181        -237.986          44.000  
G11  22046764.903   115856525.132         591.994          44.000    22046757.065    90277783.138         461.165          42.000  
G16  23473784.638   123355559.251        1158.561          43.000                                                                  
G20  23335301.059   122627824.584        3001.356          42.000                                                                  
G26  23855472.199   125361337.939       -1357.355          44.000    23855465.790    97684091.055       -1057.336          30.000  
G29  25378880.590   133366907.263         875.292          39.000    25378873.917   103922219.168         682.168          37.000  
G30  24717797.259   129892888.897        3386.846          42.000    24717792.782   101215098.816        2638.914          28.000  
G03  24116899.150   126735152.757       -3912.749          38.000    24116894.374    98754649.354       -3049.230          37.000  
> 2024 03 07 00 53 32.0000000  0 11                     
G04  21564877.876   113324191.525       -2760.670          45.000    21564870.576    88304538.897       -2151.158          42.000  
G06  21421565.358   112571074.945       -2004.442          46.000    21421560.022    87717705.605       -1561.641          42.000  
G07  22281542.568   117090286.796        2383.513          46.000    22281534.140    91239156.916        1857.331          40.000  
G09  19998536.000   105093006.996        -306.483          49.000    19998529.193    81890634.541        -238.689          44.000  
G11  22046652.369   115855933.523         591.005          44.000    22046644.404    90277322.124         460.566          42.000  
G16  23473564.250   123354401.071        1157.534          43.000                                                                  
G20  23334730.042   122624823.290        3001.133          42.000                                                                  
G26  23855730.458   125362695.572       -1358.069          44.000    23855724.058    97685148.965       -1058.282          30.000  
G29  25378714.107   133366032.042         874.791          39.000    25378707.353   103921537.161         681.924          37.000  
G30  24717152.816   129889502.272        3386.583          42.000    24717148.322   101212459.853        2639.302          28.000  
G03  24117643.741   126739065.590       -3913.535          38.000    24117638.987    98757698.298       -3049.365          37.000  
> 2024 03 07 00 53 33.0000000  0 11                     
G04  21565403.218   113326952.300       -2761.438          45.000    21565395.894    88306690.152       -2151.736          42.000  
G06  21421946.817   112573079.602       -2005.596          46.000    21421941.464    87719267.676       -1562.715          42.000  
G07  22281089.026   117087903.375        2382.738          46.000    22281080.569    91237299.706        1856.544          40.000  
G09  19998594.398   105093313.547        -307.231          49.000    19998587.629    81890873.407        -239.188          44.000  
G11  22046539.866   115855342.754         589.984          44.000    22046531.947    90276861.793         459.778          42.000  
G16  23473344.029   123353243.705        1156.525          43.000                                                                  
G20  23334158.949   122621822.380        3000.557          42.000                                                                  
G26  23855988.952   125364054.030       -1358.966          45.000    23855982.503    97686207.484       -1058.881          29.000  
G29  25378547.737   133365157.599         873.528          39.000    25378540.938   103920855.806         680.887          37.000  
G30  24716508.407   129886115.907        3386.034          42.000    24716504.039   101209821.102        2639.241          28.000  
G03  24118388.368   126742978.706       -3913.580          38.000    24118383.542    98760747.479       -3049.639          37.000  
> 2024 03 07 00 53 34.0000000  0 11                     
G04  21565928.591   113329713.519       -2761.174          45.000    21565921.381    88308841.743       -2151.608          42.000  
G06  21422328.417   112575085.038       -2005.768          46.000    21422323.133    87720830.339       -1562.678          42.000  
G07  22280635.595   117085520.470        2382.764          46.000    22280627.035    91235442.890        1857.029          39.000  
G09  19998652.829   105093620.748        -307.328          49.000    19998646.180    81891112.790        -239.531          44.000  
G11  22046427.610   115854752.834         589.736          44.000    22046419.632    90276402.117         459.527          42.000  
G16  23473123.945   123352087.134        1156.336          43.000                                                                  
G20  23333587.953   122618821.820        3000.639          42.000                                                                  
G26  23856247.532   125365413.321       -1359.619          44.000    23856241.268    97687266.673       -1059.283          29.000  
G29  25378381.520   133364283.929         873.682          39.000    25378374.657   103920175.043         680.495          36.000  
G30  24715864.020   129882729.772        3386.142          42.000    24715859.918   101207182.642        2638.346          27.000  
G03  24119133.065   126746892.173       -3913.836          37.000    24119128.160    98763796.915       -3049.337          36.000  
> 2024 03 07 00 53 35.0000000  0 11                     
G04  21566454.146   113332475.064       -2761.686          45.000    21566446.984    88310993.602       -2151.990          42.000  
G06  21422710.209   112577091.115       -2006.418          46.000    21422704.814    87722393.535       -1563.662          42.000  
G07  22280182.277   117083137.952        2382.243          46.000    22280173.716    91233586.398        1856.108          40.000  
G09  19998711.440   105093928.469        -308.032          49.000    19998704.743    81891352.564        -239.955          44.000  
G11  22046315.551   115854163.628         588.751          44.000    22046307.540    90275942.988         458.821          41.000  
G16  23472903.945   123350931.239        1155.443          43.000                                                                  
G20  23333017.050   122615821.495        3000.006          42.000                                                                  
G26  23856506.302   125366773.269       -1360.199          44.000    23856500.005    97688326.394       -1060.346          29.000  
G29  25378215.308   133363410.896         872.776          39.000    25378208.514   103919494.758         679.768          36.000  
G30  24715219.705   129879343.751        3385.985          42.000    24715215.611   101204544.141        2638.502          27.000  
G03  24119877.766   126750805.783       -3913.952          37.000    24119872.944    98766846.481       -3049.225          36.000  
> 2024 03 07 00 53 36.0000000  0 11                     
G04  21566979.749   113335237.174       -2762.246          45.000    21566972.532    88313145.890       -2152.263          41.000  
G06  21423092.057   112579098.115       -2007.543          46.000    21423086.776    87723957.420       -1564.153          41.000  
G07  22279728.978   117080756.063        2381.723          46.000    22279720.486    91231730.362        1855.899          39.000  
G09  19998770.075   105094236.937        -308.837          49.000    19998763.470    81891592.930        -240.604          43.000  
G11  22046203.550   115853575.364         587.960          44.000    22046195.563    90275484.610         458.033          41.000  
G16  23472684.152   123349776.242        1154.755          43.000                                                                  
G20  23332446.278   122612821.594        2999.808          42.000                                                                  
G26  23856765.270   125368134.138       -1361.261          44.000    23856759.005    97689386.800       -1060.712          28.000  
G29  25378049.370   133362538.737         871.896          39.000    25378042.577   103918815.157         678.983          35.000  
G30  24714575.460   129875958.099        3385.369          42.000    24714571.200   101201905.942        2638.621          27.000  
G03  24120622.632   126754719.811       -3913.727          37.000    24120617.830    98769896.413       -3050.151          36.000  
> 2024 03 07 00 53 37.0000000  0 11                     
G04  21567505.364   113337999.564       -2762.578          45.000    21567498.237    88315298.426       -2153.026          41.000  
G06  21423474.080   112581105.704       -2008.114          46.000    21423468.863    87725521.779       -1564.591          41.000  
G07  22279275.640   117078374.533        2381.175          46.000    22279267.333    91229874.621        1855.539          39.000  
G09  19998828.905   105094545.886        -309.370          49.000    19998822.161    81891833.679        -241.207          43.000  
G11  22046091.736   115852987.777         587.203          44.000    22046083.792    90275026.741         457.604          41.000  
G16  23472464.576   123348621.892        1154.011          43.000                                                                  
G20  23331875.496   122609821.918        2999.427          42.000                                                                  
G26  23857024.217   125369495.642       -1361.957          44.000    23857017.942    97690447.759       -1061.505          28.000  
G29  25377883.692   133361667.206         870.863          39.000    25377876.682   103918136.024         678.689          35.000  
G30  24713931.195   129872572.531        3385.156          42.000    24713926.860   101199267.827        2637.926          26.000  
G03  24121367.459   126758634.031       -3914.680          37.000    24121362.691    98772946.436       -3050.772          36.000  
> 2024 03 07 00 53 38.0000000  0 11                     
G04  21568031.101   113340762.447       -2763.097          45.000    21568023.949    88317451.291       -2152.787          42.000  
G06  21423856.347   112583114.125       -2008.895          46.000    21423851.115    87727086.776       -1565.433          42.000  
G07  22278822.552   117075993.556        2380.507          46.000    22278814.151    91228019.330        1854.885          40.000  
G09  19998887.892   105094855.512        -309.879          49.000    19998881.037    81892074.943        -241.406          44.000  
G11  22045980.034   115852401.073         586.293          44.000    22045972.206    90274569.571         456.656          41.000  
G16  23472245.048   123347468.371        1153.198          42.000                                                                  
G20  23331304.801   122606822.619        2999.223          42.000                                                                  
G26  23857283.544   125370858.005       -1362.866          44.000    23857277.002    97691509.328       -1062.311          28.000  
G29  25377718.018   133360796.424         870.269          39.000    25377711.049   103917457.494         677.939          36.000  
G30  24713287.092   129869187.194        3385.188          42.000    24713282.614   101196629.931        2638.134          27.000  
G03  24122112.385   126762548.557       -3914.791          37.000    24122107.587    98775996.708       -3050.646          37.000  
> 2024 03 07 00 53 39.0000000  0 11                     
G04  21568556.994   113343525.863       -2763.735          45.000    21568549.821    88319604.609       -2153.401          42.000  
G06  21424238.777   112585123.395       -2009.547          46.000    21424233.491    87728652.447       -1565.988          42.000  
G07  22278369.596   117073613.149        2380.196          46.000    22278361.226    91226164.461        1855.046          40.000  
G09  19998946.839   105095165.856        -310.572          49.000    19998940.121    81892316.771        -242.139          44.000  
G11  22045868.535   115851815.277         585.470          44.000    22045860.700    90274113.105         456.260          42.000  
G16  23472025.650   123346315.717        1152.293          43.000                                                                  
G20  23330734.128   122603823.753        2998.649          42.000                                                                  
G26  23857542.985   125372221.235       -1363.708          44.000    23857536.277    97692571.572       -1062.524          28.000  
